{
	"canchas": [{
			"id": 1,
			"latitud": 3.394049,
			"longitud": -76.536038,
			"nombre": "Morumbi Fútbol 5",
			"direccion": "Cl. 13a 1 #68-1",
			"atencion": "9am - 12am",
			"telefono": "3173836302",
			"img": "./img/morumbi.png",
			"zona": "sur",
			"pagina": "http://www.elmorumbifutbol5.com/"
		},
		{
			"id": 2,
			"latitud": 3.392796,
			"longitud": -76.530782,
			"nombre": "Camp Nou Sur",
			"direccion": "Cra. 70 #14-60",
			"atencion": "10am - 9pm",
			"telefono": "3183380719",
			"img": "./img/campnou.png",
			"zona": "sur",
			"pagina": "https://www.facebook.com/pages/Camp-Nou-Canchas-De-Futbol/442668029160925?rf=567282496696827"
		},
		{
			"id": 3,
			"latitud": 3.392974,
			"longitud": -76.537902,
			"nombre": "TIRO DE ESQUINA",
			"direccion": "Carrera 70 #13-90",
			"atencion": "10am - 10pm",
			"telefono": "3113933830",
			"img": "./img/tiro.png",
			"zona": "sur",
			"pagina": "https://www.facebook.com/Escueladefutbolbasetirodeesquina/"
		},
		{
			"id": 4,
			"latitud": 3.394979,
			"longitud": -76.535713,
			"nombre": "Olimpico Futbol 6",
			"direccion": "Calle 13A # 68 - 99",
			"atencion": "9am - 8pm",
			"telefono": "3113171477",
			"img": "./img/olimpic.png",
			"zona": "sur",
			"pagina": "https://www.facebook.com/pages/Canchas-Sinteticas-El-Olimpico/1631277420455857"
		},
		{
			"id": 5,
			"latitud": 3.397609,
			"longitud": -76.525778,
			"nombre": "Zathura",
			"direccion": "Cra. 66 #75",
			"atencion": "9am - 8pm",
			"telefono": "3136398153",
			"img": "./img/olimpic.png",
			"zona": "este"
		},
		{
			"id": 7,
			"latitud": 3.330038,
			"longitud": -76.533054,
			"nombre": "Las palmas",
			"direccion": "Calle 18 #127C - 100",
			"atencion": "9am - 12pm",
			"telefono": "314 8164164",
			"img": "./img/olimpic.png",
			"zona": "sur",
			"pagina": "https://www.facebook.com/Las-Palmas-centro-deportivo-419398578393874/"
		},
		{
			"id": 8,
			"latitud": 3.289534,
			"longitud": -76.546767,
			"nombre": "Canchas Alianza Real",
			"direccion": "Av CañasGordas # 168",
			"atencion": "9am - 12pm",
			"telefono": "304 6008777",
			"img": "./img/olimpic.png",
			"zona": "sur",
			"pagina": "https://www.facebook.com/canchasalianzareal/"
		},
		{
			"id": 9,
			"latitud": 3.343488,
			"longitud": -76.525367,
			"nombre": "Complejo deportivo El Pibe",
			"direccion": "Cra. 122 ##24A - 32",
			"atencion": "9am - 12pm",
			"telefono": "311 7790147",
			"img": "./img/olimpic.png",
			"zona": "sur",
			"pagina": "https://www.facebook.com/complejodeportivoelpibe/?rf=173385456180776"
		},
		{
			"id": 10,
			"latitud": 3.338659,
			"longitud": -76.530054,
			"nombre": "City Soccer",
			"direccion": "Carrera 125 # 19 - 59 Pance",
			"atencion": "7:00 - 23:00",
			"telefono": "317 3725231",
			"img": "./img/olimpic.png",
			"zona": "sur",
			"pagina": "https://www.facebook.com/pg/citysoccer2017/about/?ref=page_internal"
		},
		{
			"id": 11,
			"latitud": 3.387554,
			"longitud": -76.522624,
			"nombre": "El Calderon",
			"direccion": "Cra. 80 #282, Cali",
			"atencion": "7:00 - 23:00",
			"telefono": "(2) 3153815",
			"img": "./img/olimpic.png",
			"zona": "sur",
			"pagina": "https://www.facebook.com/complejodeportivoelcalderon/"
		},
		{
			"id": 12,
			"latitud": 3.387980,
			"longitud": -76.551691,
			"nombre": "Colinas Del Sur",
			"direccion": "Cra. 80 #282, Cali",
			"atencion": "7:00 - 23:00",
			"telefono": "317 3285720",
			"img": "./img/olimpic.png",
			"zona": "sur",
			"pagina": "https://www.facebook.com/complejodeportivoelcalderon/"
		},
		{
			"id": 13,
			"latitud": 3.403015,
			"longitud": -76.527066,
			"nombre": "Maracaná Sur ",
			"direccion": "Cl. 16 #53-163",
			"atencion": "7:00 - 23:00",
			"telefono": "(2) 3961463",
			"img": "./img/olimpic.png",
			"zona": "sur",
			"pagina": "https://www.facebook.com/euforiacanchas/"
		},
		{
			"id": 14,
			"latitud": 3.404804,
			"longitud": -76.527109,
			"nombre": "Fuera de Lugar Futbol 5",
			"direccion": "Cl. 16 #52-15",
			"atencion": "7:00 - 22:00",
			"telefono": "321 8032289",
			"img": "./img/olimpic.png",
			"zona": "sur",
			"pagina": "https://www.facebook.com/euforiacanchas/"
		},
		{
			"id": 15,
			"latitud": 3.423862,
			"longitud": -76.543173,
			"nombre": "El Pascual Fútbol 5",
			"direccion": "Cl. 5e #38 - 28",
			"atencion": "7:00 - 22:00",
			"telefono": "(2) 5577964",
			"img": "./img/olimpic.png",
			"zona": "norte",
			"pagina": "http://www.pascualito.com.co/"
		},
		{
			"id": 16,
			"latitud": 3.446642,
			"longitud": -76.519734,
			"nombre": "Pascual Obrero",
			"direccion": "Cra. 12 #22a-51",
			"atencion": "7:00 - 22:00",
			"telefono": "(2) 8859494",
			"img": "./img/olimpic.png",
			"zona": "norte",
			"pagina": "https://www.facebook.com/PascualObrero5/?rf=309164149178801"
		},
		{
			"id": 17,
			"latitud": 3.456998,
			"longitud": -76.525433,
			"nombre": "Forza Azzurri FC",
			"direccion": "Cl. 21 #2-74",
			"atencion": "7:00 - 22:00",
			"telefono": "(2) 8844008",
			"img": "./img/olimpic.png",
			"zona": "norte",
			"pagina": "https://www.facebook.com/canchasforzaazzurri/"
		},
		{
			"id": 18,
			"latitud": 3.472426,
			"longitud": -76.527018,
			"nombre": "La Caldera",
			"direccion": "La 14 Avenida 6ta, Avenida 6N #30N-47",
			"atencion": "7:00 - 22:00",
			"telefono": "(2) 6688286",
			"img": "./img/olimpic.png",
			"zona": "norte",
			"pagina": "https://www.facebook.com/lacalderaonline/"
		},
		{
			"id": 19,
			"latitud": 3.479463,
			"longitud": -76.527050,
			"nombre": "Chipifútbol Sintetica",
			"direccion": "Calle 40N #6-45",
			"atencion": "7:00 - 22:00",
			"telefono": "314 6641643",
			"img": "./img/olimpic.png",
			"zona": "norte",
			"pagina": "http://www.chipifutbol5.com/"
		},
		{
			"id": 20,
			"latitud": 3.487944,
			"longitud": -76.512011,
			"nombre": "Wembley Fútbol 5",
			"direccion": "Calle 58 #58A-48",
			"atencion": "7:00 - 22:00",
			"telefono": "322 2903933",
			"img": "./img/olimpic.png",
			"zona": "norte",
			"pagina": "https://www.facebook.com/wembleynortecali/"
		},
		{
			"id": 21,
			"latitud": 3.493899,
			"longitud": -76.521707,
			"nombre": "Canchas UEFA",
			"direccion": "Calle 70N # 5N-21",
			"atencion": "7:00 - 22:00",
			"telefono": "317 4657436",
			"img": "./img/olimpic.png",
			"zona": "norte",
			"pagina": "https://www.facebook.com/wembleynortecali/"
		},
		{
			"id": 22,
			"latitud": 3.478750,
			"longitud": -76.506089,
			"nombre": "La Bombonera Futgol 5",
			"direccion": "Carrera 5 Norte # 52 N 25",
			"atencion": "7:00 - 22:00",
			"telefono": "316 2703434",
			"img": "./img/olimpic.png",
			"zona": "norte",
			"pagina": "http://www.labomboneraf5.com/"
		},
		{
			"id": 23,
			"latitud": 3.478750,
			"longitud": -76.506089,
			"nombre": "La Bombonera Futgol 5",
			"direccion": "Carrera 5 Norte # 52 N 25",
			"atencion": "7:00 - 22:00",
			"telefono": "316 2703434",
			"img": "./img/olimpic.png",
			"zona": "norte",
			"pagina": "http://www.labomboneraf5.com/"
		},
		{
			"id": 24,
			"latitud": 3.430028,
			"longitud": -76.501702,
			"nombre": "CANCHA SINTETICA SINDICAL",
			"direccion": "Cl. 50 #28c-20",
			"atencion": "7:00 - 22:00",
			"telefono": "316 2703434*",
			"img": "./img/olimpic.png",
			"zona": "este",
			"pagina": "http://www.labomboneraf5.com/"
		},
		{
			"id": 25,
			"latitud": 3.485569,
			"longitud": -76.491474,
			"nombre": "La Cancha Río Cauca",
			"direccion": "Cl. 70a #1a4",
			"atencion": "7:00 - 22:00",
			"telefono": "3105023765",
			"img": "./img/olimpic.png",
			"zona": "este",
			"pagina": "http://www.riocacuacacancha.com/"
		},
		{
			"id": 26,
			"latitud": 3.453258,
			"longitud": -76.487463,
			"nombre": "Campo Verde",
			"direccion": "K 7U # 43 – 149",
			"atencion": "7:00 - 22:00",
			"telefono": "3007513271",
			"img": "./img/olimpic.png",
			"zona": "este",
			"pagina": "http://www.canchascampoverde.com/"
		},
		{
			"id": 27,
			"latitud": 3.419127,
			"longitud": -76.554032,
			"nombre": "La Orqueta",
			"direccion": "K 49 # 1 - 00",
			"atencion": "7:00 - 22:00",
			"telefono": "3154675666",
			"img": "./img/olimpic.png",
			"zona": "oeste",
			"pagina": "http://museolibre.org/exposiciones/parque-la-horqueta-siloe/"
		}

	]
}
